{"type": "FeatureCollection", "features": [{"type": "Feature", "geometry": {"type": "Point", "coordinates": [9.146462, 45.432323]}, "properties": {"geoname": "Barona, Milano, Lombardia, 20090, Italia", "tipologia": "casa_acqua"}}, {"type": "Feature", "geometry": {"type": "Point", "coordinates": [9.210285, 45.497316]}, "properties": {"geoname": "Tranvai, Via Tirano, Cassina de' Pomm, Municipio 2, Milano, Lombardia, 20125, Italia", "tipologia": "casa_acqua"}}, {"type": "Feature", "geometry": {"type": "Point", "coordinates": [9.215837, 45.460752]}, "properties": {"geoname": "XXII Marzo, Porta Vittoria, Milano, Lombardia, Italia", "tipologia": "casa_acqua"}}, {"type": "Feature", "geometry": {"type": "Point", "coordinates": [9.17529, 45.43047]}, "properties": {"geoname": "Via San Domenico Savio, Stadera, Chiesa Rossa, Milano, Lombardia, 20142, Italia", "tipologia": "casa_acqua"}}, {"type": "Feature", "geometry": {"type": "Point", "coordinates": [9.212351, 45.47847]}, "properties": {"geoname": "Casa dell'Acqua via Giovanni Battista Morgagni, Via Giovanni Battista Morgagni, Zona Buenos Aires, Municipio 3, Milano, Lombardia, 20129, Italia", "tipologia": "casa_acqua"}}, {"type": "Feature", "geometry": {"type": "Point", "coordinates": [9.177978, 45.499422]}, "properties": {"geoname": "Polizia Municipale. Comando Zona Dergano, Via Livigno, Dergano, Milano, Lombardia, 20158, Italia", "tipologia": "casa_acqua"}}, {"type": "Feature", "geometry": {"type": "Point", "coordinates": [9.13662, 45.516568]}, "properties": {"geoname": "Commissariato Quarto Oggiaro, Via Sebastiano Satta, Quarto Oggiaro, Milano, Lombardia, 20157, Italia", "tipologia": "casa_acqua"}}, {"type": "Feature", "geometry": {"type": "Point", "coordinates": [9.26385, 45.441972]}, "properties": {"geoname": "Via Giacinto Serrati Menotti, Parco Monlu\u00e8 - Ponte Lambro, Ponte Lambro, Milano, Lombardia, 20138, Italia", "tipologia": "casa_acqua"}}, {"type": "Feature", "geometry": {"type": "Point", "coordinates": [9.171018, 45.40813]}, "properties": {"geoname": "Via Costantino Baroni, Gratosoglio - Ticinello, Gratosoglio, Milano, Lombardia, 20142, Italia", "tipologia": "casa_acqua"}}, {"type": "Feature", "geometry": {"type": "Point", "coordinates": [9.191574, 45.507876]}, "properties": {"geoname": "Via Francesco Gatti, Niguarda - C\u00e0 Granda, Pratocentenaro, Milano, Lombardia, 20162, Italia", "tipologia": "casa_acqua"}}, {"type": "Feature", "geometry": {"type": "Point", "coordinates": [9.13514, 45.447178]}, "properties": {"geoname": "Largo Giambellino, Giambellino, Lorenteggio, Milano, Lombardia, 20090, Italia", "tipologia": "casa_acqua"}}, {"type": "Feature", "geometry": {"type": "Point", "coordinates": [9.223961, 45.434679]}, "properties": {"geoname": "Viale Omero, Lodi - Corvetto, Corvetto, Milano, Lombardia, 20139, Italia", "tipologia": "casa_acqua"}}, {"type": "Feature", "geometry": {"type": "Point", "coordinates": [9.102343, 45.504879]}, "properties": {"geoname": "129, Via Appennini, Gallaratese, Milano, Lombardia, 20016, Italia", "tipologia": "casa_acqua"}}, {"type": "Feature", "geometry": {"type": "Point", "coordinates": [9.102285, 45.463112]}, "properties": {"geoname": "Mappa del Parco delle Cave, Via Bianca Milesi, Forze Armate, Municipio 7, Milano, Lombardia, 20152, Italia", "tipologia": "casa_acqua"}}, {"type": "Feature", "geometry": {"type": "Point", "coordinates": [9.107446, 45.456255]}, "properties": {"geoname": "31, Via Viterbo, Forze Armate, Sella Nuova, Milano, Lombardia, 20152, Italia", "tipologia": "casa_acqua"}}, {"type": "Feature", "geometry": {"type": "Point", "coordinates": [9.184374, 45.4779]}, "properties": {"geoname": "Moscova, Largo La Foppa, Brera, Porta Garibaldi, Milano, Lombardia, 20121, Italia", "tipologia": "casa_acqua"}}, {"type": "Feature", "geometry": {"type": "Point", "coordinates": [9.234389, 45.49794]}, "properties": {"geoname": "Largo Tel Aviv, Padova, Cimiano, Milano, Lombardia, 20132, Italia", "tipologia": "casa_acqua"}}, {"type": "Feature", "geometry": {"type": "Point", "coordinates": [9.24128, 45.470759]}, "properties": {"geoname": "80, Via Giovanni Antonio Amadeo, Lambrate, Ortica, Milano, Lombardia, 20134, Italia", "tipologia": "casa_acqua"}}, {"type": "Feature", "geometry": {"type": "Point", "coordinates": [9.231565, 45.478367]}, "properties": {"geoname": "Casa dell'Acqua, Via Giuseppe Ponzio, Citt\u00e0 Studi, Milano, Lombardia, 20133, Italia", "tipologia": "casa_acqua"}}, {"type": "Feature", "geometry": {"type": "Point", "coordinates": [9.213855, 45.516573]}, "properties": {"geoname": "Bicocca, Milano, Lombardia, Italia", "tipologia": "casa_acqua"}}, {"type": "Feature", "geometry": {"type": "Point", "coordinates": [9.19116, 45.45674]}, "properties": {"geoname": "Universit\u00e0 degli Studi di Milano, Via Santa Sofia, Vigentina, Porta Lodovica, Milano, Lombardia, 20122, Italia", "tipologia": "casa_acqua"}}, {"type": "Feature", "geometry": {"type": "Point", "coordinates": [9.196821, 45.473109]}, "properties": {"geoname": "4, Via Palestro, Giardini Porta Venezia, Porta Nuova, Milano, Lombardia, 20121, Italia", "tipologia": "casa_acqua"}}]}